[
  {
    "id": "EKM_01",
    "station": "Vyttila Mobility Hub",
    "base_pm25": 82.5,
    "base_pm10": 115.0,
    "lat": 9.9670, "lng": 76.3200,
    "manual_suspects": [
      { "name": "Vyttila Flyover Painting", "type": "Infrastructure", "lat": 9.9675, "lng": 76.3210 },
      { "name": "Skyline Brownstone", "type": "Residential", "lat": 9.9692, "lng": 76.3255 },
      { "name": "Metro Extension P320", "type": "Infrastructure", "lat": 9.9655, "lng": 76.3185 },
      { "name": "Thykoodam Bridge Repair", "type": "Roadwork", "lat": 9.9580, "lng": 76.3150 },
      { "name": "Janatha Road Paving", "type": "Roadwork", "lat": 9.9710, "lng": 76.3240 },
      { "name": "Chemical Depot", "type": "Industrial", "lat": 10.0430, "lng": 76.2920 },
      { "name": "Vyttila Auto Stand Renovation", "type": "Commercial", "lat": 9.9680, "lng": 76.3220 },
      { "name": "Power House Site", "type": "Utility", "lat": 9.9620, "lng": 76.3260 },
      { "name": "Kaniyampuzha Dredging", "type": "Waterway", "lat": 9.9640, "lng": 76.3300 },
      { "name": "Mobility Hub Phase 2", "type": "Infrastructure", "lat": 9.9660, "lng": 76.3190 },
      { "name": "Toc-H School Ext", "type": "Educational", "lat": 9.9705, "lng": 76.3155 }
    ]
  },
  {
    "id": "EKM_02",
    "station": "Kaloor Junction",
    "base_pm25": 44.0, "base_pm10": 58.2,
    "lat": 9.9920, "lng": 76.2910,
    "manual_suspects": [
      { "name": "Market Road Renovation", "type": "Roadwork", "lat": 9.9935, "lng": 76.2925 },
      { "name": "Stadium Parking Deck", "type": "Commercial", "lat": 9.9980, "lng": 76.3000 },
      { "name": "Banerji Road Paving", "type": "Roadwork", "lat": 9.9950, "lng": 76.2950 },
      { "name": "Metro Pillar M12", "type": "Infrastructure", "lat": 9.9910, "lng": 76.2890 },
      { "name": "Pullepady Bridge Painting", "type": "Infrastructure", "lat": 9.9880, "lng": 76.2940 },
      { "name": "Kaloor Market Wall", "type": "Commercial", "lat": 9.9925, "lng": 76.2920 },
      { "name": "Lisie Hospital Ext", "type": "Healthcare", "lat": 9.9940, "lng": 76.2880 },
      { "name": "North Overbridge Tiles", "type": "Roadwork", "lat": 9.9900, "lng": 76.2850 },
      { "name": "Azad Road Drainage", "type": "Utility", "lat": 9.9960, "lng": 76.2980 },
      { "name": "Kathrikadavu Pipe Work", "type": "Utility", "lat": 9.9850, "lng": 76.3010 }
    ]
  },
  {
    "id": "EKM_03",
    "station": "Kakkanad SmartCity",
    "base_pm25": 142.0, "base_pm10": 195.5,
    "lat": 10.0085, "lng": 76.3620,
    "manual_suspects": [
      { "name": "Sands Infinit", "type": "Commercial", "lat": 10.0090, "lng": 76.3630 },
      { "name": "Internal Roadwork", "type": "Roadwork", "lat": 10.0070, "lng": 76.3600 },
      { "name": "Prestige Cyber Green", "type": "Commercial", "lat": 10.0105, "lng": 76.3650 },
      { "name": "Infopark P2 Gate", "type": "Infrastructure", "lat": 10.0120, "lng": 76.3680 },
      { "name": "Water Metro Jetty", "type": "Infrastructure", "lat": 10.0010, "lng": 76.3550 },
      { "name": "SmartCity P3 Foundation", "type": "Commercial", "lat": 10.0095, "lng": 76.3610 },
      { "name": "InfoPark Club House", "type": "Residential", "lat": 10.0150, "lng": 76.3660 },
      { "name": "Rajagiri Valley Road", "type": "Roadwork", "lat": 10.0020, "lng": 76.3500 },
      { "name": "Kakkanad Bridge", "type": "Infrastructure", "lat": 10.0050, "lng": 76.3580 },
      { "name": "The Waterfront Site", "type": "Residential", "lat": 10.0040, "lng": 76.3690 }
    ]
  },
  {
    "id": "EKM_04",
    "station": "Edappally Toll",
    "base_pm25": 68.4, "base_pm10": 92.0,
    "lat": 10.0250, "lng": 76.3120,
    "manual_suspects": [
      { "name": "Metro Foundation", "type": "Infrastructure", "lat": 10.0255, "lng": 76.3125 },
      { "name": "Oberon Mall Ext", "type": "Commercial", "lat": 10.0240, "lng": 76.3100 },
      { "name": "Lulu Warehouse", "type": "Industrial", "lat": 10.0300, "lng": 76.3080 },
      { "name": "NH66 Drain Work", "type": "Roadwork", "lat": 10.0220, "lng": 76.3150 },
      { "name": "St. George Wall", "type": "Infrastructure", "lat": 10.0260, "lng": 76.3110 },
      { "name": "Toll Junction Signal", "type": "Utility", "lat": 10.0245, "lng": 76.3130 },
      { "name": "Ponekkara Road", "type": "Roadwork", "lat": 10.0280, "lng": 76.3050 },
      { "name": "Amrita Hospital Ext", "type": "Healthcare", "lat": 10.0350, "lng": 76.2980 },
      { "name": "Kunnumpuram Site", "type": "Residential", "lat": 10.0320, "lng": 76.3100 },
      { "name": "Pathadipalam Bridge", "type": "Infrastructure", "lat": 10.0180, "lng": 76.3160 }
    ]
  },
  {
    "id": "EKM_05",
    "station": "MG Road (Maharajas)",
    "base_pm25": 31.2, "base_pm10": 42.8,
    "lat": 9.9750, "lng": 76.2850,
    "manual_suspects": [
      { "name": "Centre Square Repair", "type": "Commercial", "lat": 9.9780, "lng": 76.2830 },
      { "name": "Durbar Hall Road", "type": "Roadwork", "lat": 9.9710, "lng": 76.2810 },
      { "name": "Hospital Parking", "type": "Infrastructure", "lat": 9.9740, "lng": 76.2860 },
      { "name": "Maharajas Ground Wall", "type": "Infrastructure", "lat": 9.9760, "lng": 76.2840 },
      { "name": "Shenoys Theater Ext", "type": "Commercial", "lat": 9.9800, "lng": 76.2820 },
      { "name": "Law College Tiles", "type": "Infrastructure", "lat": 9.9820, "lng": 76.2850 },
      { "name": "Subhash Park Gate", "type": "Landscaping", "lat": 9.9730, "lng": 76.2800 },
      { "name": "Jos Junction Signal", "type": "Utility", "lat": 9.9720, "lng": 76.2845 },
      { "name": "Convent Road Drain", "type": "Utility", "lat": 9.9770, "lng": 76.2815 },
      { "name": "Shipyard Gate Repair", "type": "Industrial", "lat": 9.9650, "lng": 76.2880 }
    ]
  },
  {
    "id": "EKM_06",
    "station": "Eloor Industrial Area",
    "base_pm25": 110.5, "base_pm10": 155.0,
    "lat": 10.0450, "lng": 76.2950,
    "manual_suspects": [
      { "name": "FACT Expansion", "type": "Industrial", "lat": 10.0465, "lng": 76.2980 },
      { "name": "Chemical Depot", "type": "Industrial", "lat": 10.0430, "lng": 76.2920 },
      { "name": "Eloor Jetty Repair", "type": "Infrastructure", "lat": 10.0400, "lng": 76.3000 },
      { "name": "HIL Wall Work", "type": "Industrial", "lat": 10.0480, "lng": 76.2930 },
      { "name": "Industrial Canal Desilt", "type": "Utility", "lat": 10.0440, "lng": 76.2900 },
      { "name": "Periyar Bank Paving", "type": "Roadwork", "lat": 10.0470, "lng": 76.3050 },
      { "name": "TCC Lab Ext", "type": "Industrial", "lat": 10.0420, "lng": 76.2880 },
      { "name": "Pathalam Bridge Paving", "type": "Roadwork", "lat": 10.0520, "lng": 76.3020 },
      { "name": "IRE Supply Pipe", "type": "Utility", "lat": 10.0410, "lng": 76.2960 },
      { "name": "Muppathur Site", "type": "Residential", "lat": 10.0550, "lng": 76.2990 }
    ]
  },
  {
    "id": "EKM_07", "station": "Aluva Manappuram",
    "base_pm25": 55.0, "base_pm10": 78.5,
    "lat": 10.1080, "lng": 76.3550,
    "manual_suspects": [
      { "name": "Bank Beautification", "type": "Landscaping", "lat": 10.1095, "lng": 76.3570 },
      { "name": "Aluva Bridge Paving", "type": "Roadwork", "lat": 10.1060, "lng": 76.3530 },
      { "name": "Temple Path Work", "type": "Infrastructure", "lat": 10.1100, "lng": 76.3540 },
      { "name": "Municipal Office Wall", "type": "Infrastructure", "lat": 10.1070, "lng": 76.3500 },
      { "name": "Flyover Painting", "type": "Infrastructure", "lat": 10.1050, "lng": 76.3480 },
      { "name": "Periyar Sands Site", "type": "Residential", "lat": 10.1120, "lng": 76.3600 },
      { "name": "Private Bus Stand Drain", "type": "Utility", "lat": 10.1040, "lng": 76.3510 },
      { "name": "Railway Station Ext", "type": "Infrastructure", "lat": 10.1020, "lng": 76.3490 },
      { "name": "U.C College Site", "type": "Educational", "lat": 10.1150, "lng": 76.3400 },
      { "name": "Market Road Tiles", "type": "Roadwork", "lat": 10.1090, "lng": 76.3520 }
    ]
  },
  {
    "id": "EKM_08", "station": "Kalamassery Startup Village",
    "base_pm25": 42.0, "base_pm10": 60.5,
    "lat": 10.0520, "lng": 76.3250,
    "manual_suspects": [
      { "name": "Digital Science Park", "type": "Commercial", "lat": 10.0540, "lng": 76.3270 },
      { "name": "University Lab Site", "type": "Educational", "lat": 10.0500, "lng": 76.3230 },
      
      { "name": "Cochin Medical Ext", "type": "Healthcare", "lat": 10.0600, "lng": 76.3350 },
      { "name": "Kinfra Park Wall", "type": "Industrial", "lat": 10.0550, "lng": 76.3200 },
      { "name": "HMT Pipe Restoration", "type": "Utility", "lat": 10.0580, "lng": 76.3180 },
      { "name": "Container Road Drain", "type": "Roadwork", "lat": 10.0650, "lng": 76.3100 },
      { "name": "Seaport Road Paving", "type": "Roadwork", "lat": 10.0480, "lng": 76.3300 },
      { "name": "Polytechnic Wall", "type": "Educational", "lat": 10.0450, "lng": 76.3220 },
      { "name": "Apollo Tyres Gate", "type": "Industrial", "lat": 10.0620, "lng": 76.3280 },
      { "name": "Premier Junction Signal", "type": "Utility", "lat": 10.0510, "lng": 76.3150 }
    ]
  },
  {
    "id": "EKM_09", "station": "Fort Kochi Pier",
    "base_pm25": 28.5, "base_pm10": 39.0,
    "lat": 9.9680, "lng": 76.2420,
    "manual_suspects": [
      { "name": "Heritage Restoration", "type": "Infrastructure", "lat": 9.9695, "lng": 76.2440 },
      { "name": "Ro-Ro Jetty Repair", "type": "Infrastructure", "lat": 9.9700, "lng": 76.2480 },
      { "name": "Beach Wall Paving", "type": "Infrastructure", "lat": 9.9660, "lng": 76.2400 },
      { "name": "Bastian St. Tiles", "type": "Roadwork", "lat": 9.9685, "lng": 76.2430 },
      { "name": "Customs House Painting", "type": "Infrastructure", "lat": 9.9710, "lng": 76.2460 },
      { "name": "Naval Museum Wall", "type": "Infrastructure", "lat": 9.9620, "lng": 76.2410 },
      { "name": "Mattancherry Hall Repair", "type": "Infrastructure", "lat": 9.9580, "lng": 76.2580 },
      { "name": "Jew Town Drain Work", "type": "Utility", "lat": 9.9570, "lng": 76.2590 },
      { "name": "Fort Kochi Bus Stand", "type": "Infrastructure", "lat": 9.9675, "lng": 76.2450 },
      { "name": "Aspinal Wall P3", "type": "Infrastructure", "lat": 9.9705, "lng": 76.2490 }
    ]
  },
  {
    "id": "EKM_10", "station": "Tripunithura Statue",
    "base_pm25": 74.0, "base_pm10": 102.5,
    "lat": 9.9510, "lng": 76.3480,
    "manual_suspects": [
      { "name": "Hill Palace Road", "type": "Roadwork", "lat": 9.9530, "lng": 76.3510 },
      { "name": "Metro Pillar P150", "type": "Infrastructure", "lat": 9.9490, "lng": 76.3450 },
      { "name": "Statue Junction Tiles", "type": "Roadwork", "lat": 9.9515, "lng": 76.3485 },
      { "name": "Railway Flyover", "type": "Infrastructure", "lat": 9.9450, "lng": 76.3420 },
      { "name": "Poornathrayeesa Wall", "type": "Infrastructure", "lat": 9.9500, "lng": 76.3500 },
      { "name": "Sn junction Signal", "type": "Utility", "lat": 9.9560, "lng": 76.3400 },
      { "name": "Chakkamkulangara Site", "type": "Residential", "lat": 9.9580, "lng": 76.3440 },
      { "name": "Govt Hospital Ext", "type": "Healthcare", "lat": 9.9480, "lng": 76.3530 },
      { "name": "Vaikom Road Drain", "type": "Utility", "lat": 9.9420, "lng": 76.3470 },
      { "name": "Thripunithura Jetty", "type": "Infrastructure", "lat": 9.9400, "lng": 76.3350 }
    ]
  }
]